[
  {
    "name": "Rostock",
    "slug": "rostock",
    "population": 209061,
    "district": "Urban district",
    "coords": {
      "lat": "54.08333",
      "lon": "12.13333"
    },
    "area": 181.44
  },
  {
    "name": "Schwerin",
    "slug": "schwerin",
    "population": 95609,
    "district": "Urban district",
    "coords": {
      "lat": "53.63333",
      "lon": "11.41667"
    },
    "area": 130.46
  },
  {
    "name": "Neubrandenburg",
    "slug": "neubrandenburg",
    "population": 63372,
    "district": "Mecklenburgische Seenplatte",
    "coords": {
      "lat": "53.55694",
      "lon": "13.26111"
    },
    "area": 85.65
  },
  {
    "name": "Greifswald",
    "slug": "greifswald",
    "population": 59282,
    "district": "Vorpommern-Greifswald",
    "coords": {
      "lat": "54.083",
      "lon": "13.383"
    },
    "area": 50.5
  },
  {
    "name": "Stralsund",
    "slug": "stralsund",
    "population": 59205,
    "district": "Vorpommern-Rügen",
    "coords": {
      "lat": "54.30917",
      "lon": "13.08194"
    },
    "area": 54.07
  },
  {
    "name": "Wismar",
    "slug": "wismar",
    "population": 42824,
    "district": "Nordwestmecklenburg",
    "coords": {
      "lat": "53.900",
      "lon": "11.467"
    },
    "area": 41.36
  },
  {
    "name": "Güstrow",
    "slug": "guestrow",
    "population": 28999,
    "district": "Rostock",
    "coords": {
      "lat": "53.79389",
      "lon": "12.17639"
    },
    "area": 70.86
  },
  {
    "name": "Waren",
    "slug": "waren",
    "population": 21147,
    "district": "Mecklenburgische Seenplatte",
    "coords": {
      "lat": "53.517",
      "lon": "12.683"
    },
    "area": 158.39
  },
  {
    "name": "Neustrelitz",
    "slug": "neustrelitz",
    "population": 20151,
    "district": "Mecklenburgische Seenplatte",
    "coords": {
      "lat": "53.36472",
      "lon": "13.06361"
    },
    "area": 138.15
  }
]