[
  {
    "name": "Hanover",
    "slug": "hanover",
    "population": 534049,
    "district": "Hannover",
    "coords": {
      "lat": "52.367",
      "lon": "9.717"
    },
    "area": 204.01
  },
  {
    "name": "Brunswick",
    "slug": "brunswick",
    "population": 248561,
    "district": "Urban district",
    "coords": {
      "lat": "52.267",
      "lon": "10.517"
    },
    "area": 192.13
  },
  {
    "name": "Oldenburg",
    "slug": "oldenburg",
    "population": 169605,
    "district": "Urban district",
    "coords": {
      "lat": "53.14389",
      "lon": "8.21389"
    },
    "area": 102.96
  },
  {
    "name": "Osnabrück",
    "slug": "osnabrueck",
    "population": 164223,
    "district": "Urban district",
    "coords": {
      "lat": "52.283",
      "lon": "8.050"
    },
    "area": 119.8
  },
  {
    "name": "Wolfsburg",
    "slug": "wolfsburg",
    "population": 123840,
    "district": "Urban district",
    "coords": {
      "lat": "52.42306",
      "lon": "10.78722"
    },
    "area": 204.02
  },
  {
    "name": "Göttingen",
    "slug": "goettingen",
    "population": 116845,
    "district": "Göttingen",
    "coords": {
      "lat": "51.53389",
      "lon": "9.93556"
    },
    "area": 116.89
  },
  {
    "name": "Salzgitter",
    "slug": "salzgitter",
    "population": 103866,
    "district": "Urban districts of Germany",
    "coords": {
      "lat": "52.15000",
      "lon": "10.33333"
    },
    "area": 223.92
  },
  {
    "name": "Hildesheim",
    "slug": "hildesheim",
    "population": 101055,
    "district": "Hildesheim",
    "coords": {
      "lat": "52.150",
      "lon": "9.950"
    },
    "area": 92.18
  },
  {
    "name": "Delmenhorst",
    "slug": "delmenhorst",
    "population": 77503,
    "district": "Urban district",
    "coords": {
      "lat": "53.05056",
      "lon": "8.63167"
    },
    "area": 62.36
  },
  {
    "name": "Lüneburg",
    "slug": "lueneburg",
    "population": 75301,
    "district": "Lüneburg",
    "coords": {
      "lat": "53.25250",
      "lon": "10.41444"
    },
    "area": 70.34
  },
  {
    "name": "Wilhelmshaven",
    "slug": "wilhelmshaven",
    "population": 75189,
    "district": "Urban district",
    "coords": {
      "lat": "53.51667",
      "lon": "8.13333"
    },
    "area": 106.91
  },
  {
    "name": "Celle",
    "slug": "celle",
    "population": 69399,
    "district": "Celle",
    "coords": {
      "lat": "52.62556",
      "lon": "10.08250"
    },
    "area": 176.01
  },
  {
    "name": "Garbsen",
    "slug": "garbsen",
    "population": 61021,
    "district": "Hanover",
    "coords": {
      "lat": "52.41833",
      "lon": "9.59806"
    },
    "area": 79.31
  },
  {
    "name": "Hamelin",
    "slug": "hamelin",
    "population": 57276,
    "district": "Hamelin-Pyrmont",
    "coords": {
      "lat": "52.100",
      "lon": "9.367"
    },
    "area": 102.3
  },
  {
    "name": "Lingen (Ems)",
    "slug": "lingen-ems",
    "population": 55232,
    "district": "Emsland",
    "coords": {
      "lat": "52.52306",
      "lon": "7.32306"
    },
    "area": 176.15
  },
  {
    "name": "Langenhagen",
    "slug": "langenhagen",
    "population": 54684,
    "district": "Hanover",
    "coords": {
      "lat": "52.43944",
      "lon": "9.74000"
    },
    "area": 71.99
  },
  {
    "name": "Nordhorn",
    "slug": "nordhorn",
    "population": 53839,
    "district": "Grafschaft Bentheim",
    "coords": {
      "lat": "52.43194",
      "lon": "7.06778"
    },
    "area": 149.64
  },
  {
    "name": "Wolfenbüttel",
    "slug": "wolfenbuettel",
    "population": 52121,
    "district": "Wolfenbüttel",
    "coords": {
      "lat": "52.16222",
      "lon": "10.53694"
    },
    "area": 78.46
  },
  {
    "name": "Peine",
    "slug": "peine",
    "population": 50249,
    "district": "Peine",
    "coords": {
      "lat": "52.32028",
      "lon": "10.23361"
    },
    "area": 119.51
  },
  {
    "name": "Goslar",
    "slug": "goslar",
    "population": 50184,
    "district": "Goslar",
    "coords": {
      "lat": "51.90722",
      "lon": "10.43000"
    },
    "area": 163.71
  },
  {
    "name": "Emden",
    "slug": "emden",
    "population": 49874,
    "district": "Urban district",
    "coords": {
      "lat": "53.36694",
      "lon": "7.20611"
    },
    "area": 112.33
  },
  {
    "name": "Cuxhaven",
    "slug": "cuxhaven",
    "population": 48326,
    "district": "Cuxhaven",
    "coords": {
      "lat": "53.86111",
      "lon": "8.69444"
    },
    "area": 161.91
  },
  {
    "name": "Hanseatic City of Stade",
    "slug": "hanseatic-city-of-stade",
    "population": 47611,
    "district": "Stade",
    "coords": {
      "lat": "53.60083",
      "lon": "9.47639"
    },
    "area": 110.03
  },
  {
    "name": "Melle",
    "slug": "melle",
    "population": 46753,
    "district": "Osnabrück",
    "coords": {
      "lat": "52.20444",
      "lon": "8.33889"
    },
    "area": 254
  },
  {
    "name": "Neustadt am Rübenberge",
    "slug": "neustadt-am-ruebenberge",
    "population": 44586,
    "district": "Hanover",
    "coords": {
      "lat": "52.500",
      "lon": "9.467"
    },
    "area": 357
  },
  {
    "name": "Lehrte",
    "slug": "lehrte",
    "population": 44154,
    "district": "Hanover",
    "coords": {
      "lat": "52.367",
      "lon": "9.967"
    },
    "area": 127
  },
  {
    "name": "Gifhorn",
    "slug": "gifhorn",
    "population": 42939,
    "district": "Gifhorn",
    "coords": {
      "lat": "52.48861",
      "lon": "10.54639"
    },
    "area": 104.86
  },
  {
    "name": "Aurich",
    "slug": "aurich",
    "population": 42268,
    "district": "Aurich",
    "coords": {
      "lat": "53.47139",
      "lon": "7.48361"
    },
    "area": 197.21
  },
  {
    "name": "Laatzen",
    "slug": "laatzen",
    "population": 41854,
    "district": "Hanover",
    "coords": {
      "lat": "52.317",
      "lon": "9.800"
    },
    "area": 34.05
  },
  {
    "name": "Wunstorf",
    "slug": "wunstorf",
    "population": 41480,
    "district": "Hanover",
    "coords": {
      "lat": "52.42750",
      "lon": "9.42944"
    },
    "area": 126.6
  },
  {
    "name": "Buchholz in der Nordheide",
    "slug": "buchholz-in-der-nordheide",
    "population": 40091,
    "district": "Harburg",
    "coords": {
      "lat": "53.317",
      "lon": "9.867"
    },
    "area": 74.62
  },
  {
    "name": "Hanseatic City of Buxtehude",
    "slug": "hanseatic-city-of-buxtehude",
    "population": 40026,
    "district": "Stade",
    "coords": {
      "lat": "53.47694",
      "lon": "9.70111"
    },
    "area": 76.49
  },
  {
    "name": "Papenburg",
    "slug": "papenburg",
    "population": 37551,
    "district": "Emsland",
    "coords": {
      "lat": "53.067",
      "lon": "7.400"
    },
    "area": 118.36
  },
  {
    "name": "Cloppenburg",
    "slug": "cloppenburg",
    "population": 35966,
    "district": "Cloppenburg",
    "coords": {
      "lat": "52.850",
      "lon": "8.050"
    },
    "area": 70.62
  },
  {
    "name": "Meppen",
    "slug": "meppen",
    "population": 35457,
    "district": "Emsland",
    "coords": {
      "lat": "52.69361",
      "lon": "7.29278"
    },
    "area": 188.48
  },
  {
    "name": "Winsen",
    "slug": "winsen",
    "population": 35332,
    "district": "Harburg",
    "coords": {
      "lat": "53.367",
      "lon": "10.217"
    },
    "area": 109.55
  },
  {
    "name": "Leer",
    "slug": "leer",
    "population": 34958,
    "district": "Leer",
    "coords": {
      "lat": "53.23083",
      "lon": "7.45278"
    },
    "area": 70.3
  },
  {
    "name": "Barsinghausen",
    "slug": "barsinghausen",
    "population": 34394,
    "district": "Hanover",
    "coords": {
      "lat": "52.30000",
      "lon": "9.48111"
    },
    "area": 102.65
  },
  {
    "name": "Seelze",
    "slug": "seelze",
    "population": 34260,
    "district": "Hanover",
    "coords": {
      "lat": "52.39611",
      "lon": "9.59806"
    },
    "area": 54
  },
  {
    "name": "Uelzen",
    "slug": "uelzen",
    "population": 33685,
    "district": "Uelzen",
    "coords": {
      "lat": "52.96472",
      "lon": "10.56583"
    },
    "area": 135.84
  },
  {
    "name": "Vechta",
    "slug": "vechta",
    "population": 32894,
    "district": "Vechta",
    "coords": {
      "lat": "52.73056",
      "lon": "8.28861"
    },
    "area": 87.8
  },
  {
    "name": "Achim",
    "slug": "achim",
    "population": 32084,
    "district": "Verden",
    "coords": {
      "lat": "53.06528",
      "lon": "9.03417"
    },
    "area": 68.01
  },
  {
    "name": "Georgsmarienhütte",
    "slug": "georgsmarienhuette",
    "population": 31778,
    "district": "Osnabrück",
    "coords": {
      "lat": "52.200",
      "lon": "8.067"
    },
    "area": 55.41
  },
  {
    "name": "Nienburg",
    "slug": "nienburg",
    "population": 31443,
    "district": "Nienburg",
    "coords": {
      "lat": "52.64111",
      "lon": "9.20694"
    },
    "area": 64.45
  },
  {
    "name": "Bramsche",
    "slug": "bramsche",
    "population": 31225,
    "district": "Osnabrück",
    "coords": {
      "lat": "52.400",
      "lon": "7.983"
    },
    "area": 183.32
  },
  {
    "name": "Geestland",
    "slug": "geestland",
    "population": 30966,
    "district": "Cuxhaven",
    "coords": {
      "lat": "53.633",
      "lon": "8.750"
    },
    "area": 356.2
  },
  {
    "name": "Burgdorf",
    "slug": "burgdorf",
    "population": 30899,
    "district": "Hanover",
    "coords": {
      "lat": "52.45000",
      "lon": "10.00833"
    },
    "area": 112.26
  },
  {
    "name": "Einbeck",
    "slug": "einbeck",
    "population": 30449,
    "district": "Northeim",
    "coords": {
      "lat": "51.817",
      "lon": "9.867"
    },
    "area": 231.31
  },
  {
    "name": "Osterholz-Scharmbeck",
    "slug": "osterholz-scharmbeck",
    "population": 30366,
    "district": "Osterholz",
    "coords": {
      "lat": "53.217",
      "lon": "8.800"
    },
    "area": 147
  },
  {
    "name": "Walsrode",
    "slug": "walsrode",
    "population": 30220,
    "district": "Heidekreis",
    "coords": {
      "lat": "52.867",
      "lon": "9.583"
    },
    "area": 334.8
  },
  {
    "name": "Northeim",
    "slug": "northeim",
    "population": 29092,
    "district": "Northeim",
    "coords": {
      "lat": "51.70667",
      "lon": "10.00111"
    },
    "area": 145.67
  },
  {
    "name": "Springe",
    "slug": "springe",
    "population": 29084,
    "district": "Hannover",
    "coords": {
      "lat": "52.217",
      "lon": "9.550"
    },
    "area": 159.78
  },
  {
    "name": "Verden an der Aller",
    "slug": "verden-an-der-aller",
    "population": 27636,
    "district": "Verden",
    "coords": {
      "lat": "52.92333",
      "lon": "9.23500"
    },
    "area": 71.59
  },
  {
    "name": "Lohne (Oldenburg)",
    "slug": "lohne-oldenburg",
    "population": 27259,
    "district": "Vechta",
    "coords": {
      "lat": "52.66667",
      "lon": "8.23861"
    },
    "area": 90.78
  },
  {
    "name": "Nordenham",
    "slug": "nordenham",
    "population": 26102,
    "district": "Wesermarsch",
    "coords": {
      "lat": "53.500",
      "lon": "8.467"
    },
    "area": 87.32
  },
  {
    "name": "Helmstedt",
    "slug": "helmstedt",
    "population": 25544,
    "district": "Helmstedt",
    "coords": {
      "lat": "52.22806",
      "lon": "11.01056"
    },
    "area": 66.54
  },
  {
    "name": "Rinteln",
    "slug": "rinteln",
    "population": 25487,
    "district": "Schaumburg",
    "coords": {
      "lat": "52.19056",
      "lon": "9.08139"
    },
    "area": 109
  },
  {
    "name": "Norden",
    "slug": "norden",
    "population": 24767,
    "district": "Aurich",
    "coords": {
      "lat": "53.59667",
      "lon": "7.20556"
    },
    "area": 106.33
  },
  {
    "name": "Ronnenberg",
    "slug": "ronnenberg",
    "population": 24403,
    "district": "Hanover",
    "coords": {
      "lat": "52.31944",
      "lon": "9.65556"
    },
    "area": 37.78
  },
  {
    "name": "Syke",
    "slug": "syke",
    "population": 24261,
    "district": "Diepholz",
    "coords": {
      "lat": "52.91306",
      "lon": "8.82694"
    },
    "area": 127.93
  },
  {
    "name": "Haren, Germany",
    "slug": "haren-germany",
    "population": 24047,
    "district": "Emsland",
    "coords": {
      "lat": "52.767",
      "lon": "7.217"
    },
    "area": 208.76
  },
  {
    "name": "Varel",
    "slug": "varel",
    "population": 23984,
    "district": "Friesland",
    "coords": {
      "lat": "53.39694",
      "lon": "8.13611"
    },
    "area": 113.53
  },
  {
    "name": "Sehnde",
    "slug": "sehnde",
    "population": 23554,
    "district": "Hanover",
    "coords": {
      "lat": "52.31611",
      "lon": "9.96417"
    },
    "area": 103.44
  },
  {
    "name": "Hann. Münden",
    "slug": "hann-muenden",
    "population": 23504,
    "district": "Göttingen",
    "coords": {
      "lat": "51.417",
      "lon": "9.650"
    },
    "area": 121.12
  },
  {
    "name": "Westerstede",
    "slug": "westerstede",
    "population": 23232,
    "district": "Ammerland",
    "coords": {
      "lat": "53.250",
      "lon": "7.917"
    },
    "area": 179
  },
  {
    "name": "Friesoythe",
    "slug": "friesoythe",
    "population": 22512,
    "district": "Cloppenburg",
    "coords": {
      "lat": "53.02056",
      "lon": "7.85861"
    },
    "area": 247.14
  },
  {
    "name": "Stadthagen",
    "slug": "stadthagen",
    "population": 22347,
    "district": "Schaumburg",
    "coords": {
      "lat": "52.32472",
      "lon": "9.20694"
    },
    "area": 60.27
  },
  {
    "name": "Rotenburg an der Wümme",
    "slug": "rotenburg-an-der-wuemme",
    "population": 22072,
    "district": "Rotenburg (Wümme)",
    "coords": {
      "lat": "53.10694",
      "lon": "9.39694"
    },
    "area": 98.81
  },
  {
    "name": "Bad Harzburg",
    "slug": "bad-harzburg",
    "population": 21820,
    "district": "Goslar",
    "coords": {
      "lat": "51.88111",
      "lon": "10.56222"
    },
    "area": 65.42
  },
  {
    "name": "Osterode am Harz",
    "slug": "osterode-am-harz",
    "population": 21392,
    "district": "Göttingen",
    "coords": {
      "lat": "51.72861",
      "lon": "10.25222"
    },
    "area": 102.46
  },
  {
    "name": "Soltau",
    "slug": "soltau",
    "population": 21292,
    "district": "Heidekreis",
    "coords": {
      "lat": "52.983",
      "lon": "9.833"
    },
    "area": 203.25
  },
  {
    "name": "Schortens",
    "slug": "schortens",
    "population": 20483,
    "district": "Friesland",
    "coords": {
      "lat": "53.533",
      "lon": "7.950"
    },
    "area": 68.67
  },
  {
    "name": "Wildeshausen",
    "slug": "wildeshausen",
    "population": 20454,
    "district": "Oldenburg",
    "coords": {
      "lat": "52.900",
      "lon": "8.433"
    },
    "area": 89.47
  },
  {
    "name": "Wittmund",
    "slug": "wittmund",
    "population": 20405,
    "district": "Wittmund",
    "coords": {
      "lat": "53.57500",
      "lon": "7.78083"
    },
    "area": 210
  },
  {
    "name": "Duderstadt",
    "slug": "duderstadt",
    "population": 20281,
    "district": "Göttingen",
    "coords": {
      "lat": "51.51250",
      "lon": "10.25972"
    },
    "area": 95.61
  },
  {
    "name": "Burgwedel",
    "slug": "burgwedel",
    "population": 20229,
    "district": "Hanover",
    "coords": {
      "lat": "52.49333",
      "lon": "9.85861"
    },
    "area": 151.96
  }
]