[
  {
    "name": "Cologne",
    "slug": "cologne",
    "population": 1083498,
    "district": "Urban districts of Germany",
    "coords": {
      "lat": "50.93639",
      "lon": "6.95278"
    },
    "area": 405.15
  },
  {
    "name": "Düsseldorf",
    "slug": "duesseldorf",
    "population": 620523,
    "coords": {
      "lat": "51.233",
      "lon": "6.783"
    },
    "area": 217.41
  },
  {
    "name": "Dortmund",
    "slug": "dortmund",
    "population": 587696,
    "district": "Urban district",
    "coords": {
      "lat": "51.517",
      "lon": "7.467"
    },
    "area": 280.71
  },
  {
    "name": "Essen",
    "slug": "essen",
    "population": 582415,
    "district": "Urban district",
    "coords": {
      "lat": "51.45083",
      "lon": "7.01306"
    },
    "area": 210.34
  },
  {
    "name": "Duisburg",
    "slug": "duisburg",
    "population": 495885,
    "district": "Urban district",
    "coords": {
      "lat": "51.43472",
      "lon": "6.76250"
    },
    "area": 232.82
  },
  {
    "name": "Bochum",
    "slug": "bochum",
    "population": 364454,
    "district": "Urban district",
    "coords": {
      "lat": "51.48194",
      "lon": "7.21583"
    },
    "area": 145.4
  },
  {
    "name": "Wuppertal",
    "slug": "wuppertal",
    "population": 355004,
    "district": "Urban district",
    "coords": {
      "lat": "51.26667",
      "lon": "7.18333"
    },
    "area": 168.41
  },
  {
    "name": "Bielefeld",
    "slug": "bielefeld",
    "population": 333509,
    "district": "Urban district",
    "coords": {
      "lat": "52.02111",
      "lon": "8.53472"
    },
    "area": 257.8
  },
  {
    "name": "Bonn",
    "slug": "bonn",
    "population": 330579,
    "district": "Urban district",
    "coords": {
      "lat": "50.733",
      "lon": "7.100"
    },
    "area": 141.06
  },
  {
    "name": "Münster",
    "slug": "muenster",
    "population": 316403,
    "district": "Urban district",
    "coords": {
      "lat": "51.96250",
      "lon": "7.62556"
    },
    "area": 302.89
  },
  {
    "name": "Mönchengladbach",
    "slug": "moenchengladbach",
    "population": 259665,
    "district": "Urban districts of Germany",
    "coords": {
      "lat": "51.20000",
      "lon": "6.43333"
    },
    "area": 170.43
  },
  {
    "name": "Gelsenkirchen",
    "slug": "gelsenkirchen",
    "population": 259105,
    "district": "Urban district",
    "coords": {
      "lat": "51.517",
      "lon": "7.100"
    },
    "area": 104.84
  },
  {
    "name": "Aachen",
    "slug": "aachen",
    "population": 248878,
    "district": "Aachen",
    "coords": {
      "lat": "50.77556",
      "lon": "6.08361"
    },
    "area": 160.85
  },
  {
    "name": "Krefeld",
    "slug": "krefeld",
    "population": 226844,
    "district": "Urban districts of Germany",
    "coords": {
      "lat": "51.33333",
      "lon": "6.56667"
    },
    "area": 137.68
  },
  {
    "name": "Oberhausen",
    "slug": "oberhausen",
    "population": 209566,
    "district": "Urban districts of Germany",
    "coords": {
      "lat": "51.49667",
      "lon": "6.87056"
    },
    "area": 77.04
  },
  {
    "name": "Hagen",
    "slug": "hagen",
    "population": 188687,
    "district": "Urban district",
    "coords": {
      "lat": "51.367",
      "lon": "7.483"
    },
    "area": 160.4
  },
  {
    "name": "Hamm",
    "slug": "hamm",
    "population": 178967,
    "district": "Urban district",
    "coords": {
      "lat": "51.683",
      "lon": "7.817"
    },
    "area": 226.26
  },
  {
    "name": "Mülheim an der Ruhr",
    "slug": "muelheim-an-der-ruhr",
    "population": 170921,
    "district": "Urban districts of Germany",
    "coords": {
      "lat": "51.42750",
      "lon": "6.88250"
    },
    "area": 91.26
  },
  {
    "name": "Leverkusen",
    "slug": "leverkusen",
    "population": 163905,
    "district": "Urban district",
    "coords": {
      "lat": "51.033",
      "lon": "6.983"
    },
    "area": 78.85
  },
  {
    "name": "Solingen",
    "slug": "solingen",
    "population": 159193,
    "district": "Urban district",
    "coords": {
      "lat": "51.16667",
      "lon": "7.08333"
    },
    "area": 89.45
  },
  {
    "name": "Herne city",
    "slug": "herne-city",
    "population": 156940,
    "district": "Urban district",
    "coords": {
      "lat": "51.55000",
      "lon": "7.21667"
    },
    "area": 51.41
  },
  {
    "name": "Neuss",
    "slug": "neuss",
    "population": 153109,
    "district": "Rhein-Kreis Neuss",
    "coords": {
      "lat": "51.200",
      "lon": "6.700"
    },
    "area": 99.48
  },
  {
    "name": "Paderborn",
    "slug": "paderborn",
    "population": 151864,
    "district": "Paderborn",
    "coords": {
      "lat": "51.71806",
      "lon": "8.75417"
    },
    "area": 179.38
  },
  {
    "name": "Bottrop",
    "slug": "bottrop",
    "population": 117388,
    "district": "Urban district",
    "coords": {
      "lat": "51.52472",
      "lon": "6.92278"
    },
    "area": 100.7
  },
  {
    "name": "Bergisch Gladbach",
    "slug": "bergisch-gladbach",
    "population": 111636,
    "district": "Rheinisch-Bergischer Kreis",
    "coords": {
      "lat": "51.100",
      "lon": "7.117"
    },
    "area": 83.12
  },
  {
    "name": "Remscheid",
    "slug": "remscheid",
    "population": 111516,
    "district": "Urban districts of Germany",
    "coords": {
      "lat": "51.18333",
      "lon": "7.20000"
    },
    "area": 74.6
  },
  {
    "name": "Recklinghausen",
    "slug": "recklinghausen",
    "population": 110705,
    "district": "Recklinghausen",
    "coords": {
      "lat": "51.58500",
      "lon": "7.16194"
    },
    "area": 66.4
  },
  {
    "name": "Moers",
    "slug": "moers",
    "population": 103487,
    "district": "Wesel",
    "coords": {
      "lat": "51.45917",
      "lon": "6.61972"
    },
    "area": 67.68
  },
  {
    "name": "Siegen",
    "slug": "siegen",
    "population": 101943,
    "district": "Siegen-Wittgenstein",
    "coords": {
      "lat": "50.883",
      "lon": "8.017"
    },
    "area": 114.67
  },
  {
    "name": "Gütersloh",
    "slug": "guetersloh",
    "population": 100664,
    "district": "Gütersloh",
    "coords": {
      "lat": "51.900",
      "lon": "8.383"
    },
    "area": 111.99
  },
  {
    "name": "Witten",
    "slug": "witten",
    "population": 95876,
    "district": "Ennepe-Ruhr-Kreis",
    "coords": {
      "lat": "51.43333",
      "lon": "7.33333"
    },
    "area": 72.4
  },
  {
    "name": "Iserlohn",
    "slug": "iserlohn",
    "population": 91815,
    "district": "Märkischer Kreis",
    "coords": {
      "lat": "51.383",
      "lon": "7.667"
    },
    "area": 125.5
  },
  {
    "name": "Düren",
    "slug": "dueren",
    "population": 91272,
    "district": "Düren",
    "coords": {
      "lat": "50.800",
      "lon": "6.483"
    },
    "area": 85.02
  },
  {
    "name": "Ratingen",
    "slug": "ratingen",
    "population": 86899,
    "district": "Mettmann",
    "coords": {
      "lat": "51.30000",
      "lon": "6.85000"
    },
    "area": 88.72
  },
  {
    "name": "Lünen",
    "slug": "luenen",
    "population": 85838,
    "district": "Unna",
    "coords": {
      "lat": "51.617",
      "lon": "7.517"
    },
    "area": 59.18
  },
  {
    "name": "Marl",
    "slug": "marl",
    "population": 84312,
    "district": "Recklinghausen",
    "coords": {
      "lat": "51.667",
      "lon": "7.117"
    },
    "area": 87.69
  },
  {
    "name": "Minden",
    "slug": "minden",
    "population": 81592,
    "district": "Minden-Lübbecke",
    "coords": {
      "lat": "52.28833",
      "lon": "8.91667"
    },
    "area": 101.08
  },
  {
    "name": "Velbert",
    "slug": "velbert",
    "population": 81564,
    "district": "Mettmann",
    "coords": {
      "lat": "51.333",
      "lon": "7.050"
    },
    "area": 74.9
  },
  {
    "name": "Viersen",
    "slug": "viersen",
    "population": 77376,
    "district": "Viersen",
    "coords": {
      "lat": "51.25611",
      "lon": "6.39722"
    },
    "area": 91.07
  },
  {
    "name": "Rheine",
    "slug": "rheine",
    "population": 76123,
    "district": "Steinfurt",
    "coords": {
      "lat": "52.283",
      "lon": "7.433"
    },
    "area": 145
  },
  {
    "name": "Gladbeck",
    "slug": "gladbeck",
    "population": 75518,
    "district": "Recklinghausen",
    "coords": {
      "lat": "51.567",
      "lon": "6.967"
    },
    "area": 35.91
  },
  {
    "name": "Troisdorf",
    "slug": "troisdorf",
    "population": 74994,
    "district": "Rhein-Sieg-Kreis",
    "coords": {
      "lat": "50.81611",
      "lon": "7.15556"
    },
    "area": 62.17
  },
  {
    "name": "Dorsten",
    "slug": "dorsten",
    "population": 74515,
    "district": "Recklinghausen",
    "coords": {
      "lat": "51.66000",
      "lon": "6.96417"
    },
    "area": 171
  },
  {
    "name": "Detmold",
    "slug": "detmold",
    "population": 74097,
    "district": "Lippe",
    "coords": {
      "lat": "51.93778",
      "lon": "8.88333"
    },
    "area": 129.39
  },
  {
    "name": "Arnsberg",
    "slug": "arnsberg",
    "population": 73487,
    "district": "Hochsauerlandkreis",
    "coords": {
      "lat": "51.383",
      "lon": "8.083"
    },
    "area": 193.45
  },
  {
    "name": "Castrop-Rauxel",
    "slug": "castrop-rauxel",
    "population": 73126,
    "district": "Recklinghausen",
    "coords": {
      "lat": "51.550",
      "lon": "7.317"
    },
    "area": 51.66
  },
  {
    "name": "Lüdenscheid",
    "slug": "luedenscheid",
    "population": 71911,
    "district": "Märkischer Kreis",
    "coords": {
      "lat": "51.217",
      "lon": "7.633"
    },
    "area": 86.73
  },
  {
    "name": "Bocholt",
    "slug": "bocholt",
    "population": 71061,
    "district": "Borken",
    "coords": {
      "lat": "51.833",
      "lon": "6.617"
    },
    "area": 119.37
  },
  {
    "name": "Lippstadt",
    "slug": "lippstadt",
    "population": 67793,
    "district": "Soest",
    "coords": {
      "lat": "51.667",
      "lon": "8.350"
    },
    "area": 113.3
  },
  {
    "name": "Dinslaken",
    "slug": "dinslaken",
    "population": 67338,
    "district": "Wesel",
    "coords": {
      "lat": "51.567",
      "lon": "6.733"
    },
    "area": 47.67
  },
  {
    "name": "Herford",
    "slug": "herford",
    "population": 66495,
    "district": "Herford",
    "coords": {
      "lat": "52.13333",
      "lon": "8.68333"
    },
    "area": 78.95
  },
  {
    "name": "Kerpen",
    "slug": "kerpen",
    "population": 65802,
    "district": "Rhein-Erft-Kreis",
    "coords": {
      "lat": "50.87194",
      "lon": "6.69611"
    },
    "area": 113.94
  },
  {
    "name": "Dormagen",
    "slug": "dormagen",
    "population": 64500,
    "district": "Rhein-Kreis Neuss",
    "coords": {
      "lat": "51.100",
      "lon": "6.817"
    },
    "area": 85.4
  },
  {
    "name": "Grevenbroich",
    "slug": "grevenbroich",
    "population": 63941,
    "district": "Rhein-Kreis Neuss",
    "coords": {
      "lat": "51.08833",
      "lon": "6.58750"
    },
    "area": 102.6
  },
  {
    "name": "Herten",
    "slug": "herten",
    "population": 61860,
    "district": "Recklinghausen",
    "coords": {
      "lat": "51.600",
      "lon": "7.133"
    },
    "area": 37.31
  },
  {
    "name": "Bergheim",
    "slug": "bergheim",
    "population": 61749,
    "district": "Rhein-Erft-Kreis",
    "coords": {
      "lat": "50.967",
      "lon": "6.650"
    },
    "area": 96.33
  },
  {
    "name": "Wesel",
    "slug": "wesel",
    "population": 60329,
    "district": "Wesel",
    "coords": {
      "lat": "51.65861",
      "lon": "6.61778"
    },
    "area": 122.617
  },
  {
    "name": "Hürth",
    "slug": "huerth",
    "population": 59525,
    "district": "Rhein-Erft-Kreis",
    "coords": {
      "lat": "50.87750",
      "lon": "6.87611"
    },
    "area": 51.173
  },
  {
    "name": "Langenfeld",
    "slug": "langenfeld",
    "population": 59112,
    "district": "Mettmann",
    "coords": {
      "lat": "51.117",
      "lon": "6.950"
    },
    "area": 41.1
  },
  {
    "name": "Unna",
    "slug": "unna",
    "population": 58816,
    "district": "Unna",
    "coords": {
      "lat": "51.53472",
      "lon": "7.68889"
    },
    "area": 88.52
  },
  {
    "name": "Euskirchen",
    "slug": "euskirchen",
    "population": 58466,
    "district": "Euskirchen",
    "coords": {
      "lat": "50.65972",
      "lon": "6.79167"
    },
    "area": 139.63
  },
  {
    "name": "Meerbusch",
    "slug": "meerbusch",
    "population": 56479,
    "district": "Rhein-Kreis Neuss",
    "coords": {
      "lat": "51.267",
      "lon": "6.667"
    },
    "area": 64.37
  },
  {
    "name": "Stolberg",
    "slug": "stolberg",
    "population": 56377,
    "district": "Aachen",
    "coords": {
      "lat": "50.767",
      "lon": "6.233"
    },
    "area": 98.52
  },
  {
    "name": "Eschweiler",
    "slug": "eschweiler",
    "population": 56172,
    "district": "Aachen",
    "coords": {
      "lat": "50.817",
      "lon": "6.283"
    },
    "area": 76.559
  },
  {
    "name": "Sankt Augustin",
    "slug": "sankt-augustin",
    "population": 55590,
    "district": "Rhein-Sieg-Kreis",
    "coords": {
      "lat": "50.77000",
      "lon": "7.18667"
    },
    "area": 34.22
  },
  {
    "name": "Hilden",
    "slug": "hilden",
    "population": 55274,
    "district": "Mettmann",
    "coords": {
      "lat": "51.17139",
      "lon": "6.93944"
    },
    "area": 25.96
  },
  {
    "name": "Pulheim",
    "slug": "pulheim",
    "population": 54636,
    "district": "Rhein-Erft-Kreis",
    "coords": {
      "lat": "51.000",
      "lon": "6.800"
    },
    "area": 72.14
  },
  {
    "name": "Hattingen",
    "slug": "hattingen",
    "population": 54278,
    "district": "Ennepe-Ruhr-Kreis",
    "coords": {
      "lat": "51.39917",
      "lon": "7.18583"
    },
    "area": 71.4
  },
  {
    "name": "Bad Salzuflen",
    "slug": "bad-salzuflen",
    "population": 54166,
    "district": "Lippe",
    "coords": {
      "lat": "52.08750",
      "lon": "8.75056"
    },
    "area": 100.05
  },
  {
    "name": "Ahlen",
    "slug": "ahlen",
    "population": 52635,
    "district": "Warendorf",
    "coords": {
      "lat": "51.76333",
      "lon": "7.89111"
    },
    "area": 123.14
  },
  {
    "name": "Menden",
    "slug": "menden",
    "population": 52452,
    "district": "Märkischer Kreis",
    "coords": {
      "lat": "51.43333",
      "lon": "7.80000"
    },
    "area": 86.08
  },
  {
    "name": "Kleve",
    "slug": "kleve",
    "population": 52359,
    "district": "Kleve",
    "coords": {
      "lat": "51.79000",
      "lon": "6.14000"
    },
    "area": 97.79
  },
  {
    "name": "Frechen",
    "slug": "frechen",
    "population": 51947,
    "district": "Rhein-Erft-Kreis",
    "coords": {
      "lat": "50.917",
      "lon": "6.817"
    },
    "area": 45.11
  },
  {
    "name": "Ibbenbüren",
    "slug": "ibbenbueren",
    "population": 51526,
    "district": "Steinfurt",
    "coords": {
      "lat": "52.27778",
      "lon": "7.71667"
    },
    "area": 108.85
  },
  {
    "name": "Gummersbach",
    "slug": "gummersbach",
    "population": 50978,
    "district": "Oberbergischer Kreis",
    "coords": {
      "lat": "51.033",
      "lon": "7.567"
    },
    "area": 95.3
  },
  {
    "name": "Willich",
    "slug": "willich",
    "population": 50283,
    "district": "Viersen",
    "coords": {
      "lat": "51.26306",
      "lon": "6.54917"
    },
    "area": 67.77
  },
  {
    "name": "Erftstadt",
    "slug": "erftstadt",
    "population": 50060,
    "district": "Rhein-Erft-Kreis",
    "coords": {
      "lat": "50.817",
      "lon": "6.767"
    },
    "area": 119.88
  },
  {
    "name": "Bergkamen",
    "slug": "bergkamen",
    "population": 48919,
    "district": "Unna",
    "coords": {
      "lat": "51.617",
      "lon": "7.633"
    },
    "area": 44.8
  },
  {
    "name": "Rheda-Wiedenbrück",
    "slug": "rheda-wiedenbrueck",
    "population": 48672,
    "district": "Gütersloh",
    "coords": {
      "lat": "51.84167",
      "lon": "8.30000"
    },
    "area": 86.66
  },
  {
    "name": "Gronau",
    "slug": "gronau",
    "population": 48576,
    "district": "Borken",
    "coords": {
      "lat": "52.21250",
      "lon": "7.04167"
    },
    "area": 78.63
  },
  {
    "name": "Bad Oeynhausen",
    "slug": "bad-oeynhausen",
    "population": 48535,
    "district": "Minden-Lübbecke",
    "coords": {
      "lat": "52.200",
      "lon": "8.800"
    },
    "area": 64.8
  },
  {
    "name": "Bornheim",
    "slug": "bornheim",
    "population": 48348,
    "district": "Rhein-Sieg-Kreis",
    "coords": {
      "lat": "50.75917",
      "lon": "7.00500"
    },
    "area": 82.72
  },
  {
    "name": "Hennef",
    "slug": "hennef",
    "population": 47544,
    "district": "Rhein-Sieg-Kreis",
    "coords": {
      "lat": "50.783",
      "lon": "7.283"
    },
    "area": 105.79
  },
  {
    "name": "Alsdorf",
    "slug": "alsdorf",
    "population": 47330,
    "district": "Aachen",
    "coords": {
      "lat": "50.883",
      "lon": "6.167"
    },
    "area": 31.658
  },
  {
    "name": "Soest",
    "slug": "soest",
    "population": 47206,
    "district": "Soest",
    "coords": {
      "lat": "51.57111",
      "lon": "8.10917"
    },
    "area": 85.81
  },
  {
    "name": "Dülmen",
    "slug": "duelmen",
    "population": 46706,
    "district": "Coesfeld",
    "coords": {
      "lat": "51.83083",
      "lon": "7.27833"
    },
    "area": 184.49
  },
  {
    "name": "Herzogenrath",
    "slug": "herzogenrath",
    "population": 46225,
    "district": "Aachen",
    "coords": {
      "lat": "50.867",
      "lon": "6.100"
    },
    "area": 33.401
  },
  {
    "name": "Schwerte",
    "slug": "schwerte",
    "population": 46124,
    "district": "Unna",
    "coords": {
      "lat": "51.44583",
      "lon": "7.56528"
    },
    "area": 56.2
  },
  {
    "name": "Bünde",
    "slug": "buende",
    "population": 45376,
    "district": "Herford",
    "coords": {
      "lat": "52.200",
      "lon": "8.600"
    },
    "area": 59.3
  },
  {
    "name": "Erkrath",
    "slug": "erkrath",
    "population": 43878,
    "district": "Mettmann",
    "coords": {
      "lat": "51.22389",
      "lon": "6.91472"
    },
    "area": 26.89
  },
  {
    "name": "Brühl",
    "slug": "bruehl",
    "population": 43673,
    "district": "Rhein-Erft-Kreis",
    "coords": {
      "lat": "50.833",
      "lon": "6.900"
    },
    "area": 36.12
  },
  {
    "name": "Kaarst",
    "slug": "kaarst",
    "population": 43615,
    "district": "Rhein-Kreis Neuss",
    "coords": {
      "lat": "51.217",
      "lon": "6.617"
    },
    "area": 37.48
  },
  {
    "name": "Erkelenz",
    "slug": "erkelenz",
    "population": 43275,
    "district": "Heinsberg",
    "coords": {
      "lat": "51.083",
      "lon": "6.317"
    },
    "area": 117.35
  },
  {
    "name": "Kamen",
    "slug": "kamen",
    "population": 42875,
    "district": "Unna",
    "coords": {
      "lat": "51.59167",
      "lon": "7.66528"
    },
    "area": 40.93
  },
  {
    "name": "Borken",
    "slug": "borken",
    "population": 42650,
    "district": "Borken",
    "coords": {
      "lat": "51.833",
      "lon": "6.867"
    },
    "area": 152.6
  },
  {
    "name": "Heinsberg",
    "slug": "heinsberg",
    "population": 42476,
    "district": "Heinsberg",
    "coords": {
      "lat": "51.06306",
      "lon": "6.09639"
    },
    "area": 92.14
  },
  {
    "name": "Nettetal",
    "slug": "nettetal",
    "population": 42438,
    "district": "Viersen",
    "coords": {
      "lat": "51.317",
      "lon": "6.283"
    },
    "area": 84
  },
  {
    "name": "Siegburg",
    "slug": "siegburg",
    "population": 41669,
    "district": "Rhein-Sieg-Kreis",
    "coords": {
      "lat": "50.80139",
      "lon": "7.20444"
    },
    "area": 23.47
  },
  {
    "name": "Monheim am Rhein",
    "slug": "monheim-am-rhein",
    "population": 41279,
    "district": "Mettmann",
    "coords": {
      "lat": "51.100",
      "lon": "6.900"
    },
    "area": 23.1
  },
  {
    "name": "Königswinter",
    "slug": "koenigswinter",
    "population": 41122,
    "district": "Rhein-Sieg-Kreis",
    "coords": {
      "lat": "50.67361",
      "lon": "7.19472"
    },
    "area": 76.19
  },
  {
    "name": "Lemgo",
    "slug": "lemgo",
    "population": 40456,
    "district": "Lippe",
    "coords": {
      "lat": "52.02722",
      "lon": "8.91167"
    },
    "area": 100.85
  },
  {
    "name": "Hückelhoven",
    "slug": "hueckelhoven",
    "population": 40425,
    "district": "Heinsberg",
    "coords": {
      "lat": "51.06083",
      "lon": "6.21972"
    },
    "area": 61.27
  },
  {
    "name": "Löhne",
    "slug": "loehne",
    "population": 39871,
    "district": "Herford",
    "coords": {
      "lat": "52.200",
      "lon": "8.700"
    },
    "area": 59.41
  },
  {
    "name": "Ahaus",
    "slug": "ahaus",
    "population": 39404,
    "district": "Borken",
    "coords": {
      "lat": "52.067",
      "lon": "7.000"
    },
    "area": 151.22
  },
  {
    "name": "Mettmann",
    "slug": "mettmann",
    "population": 38749,
    "district": "Mettmann",
    "coords": {
      "lat": "51.250",
      "lon": "6.967"
    },
    "area": 42.52
  },
  {
    "name": "Niederkassel",
    "slug": "niederkassel",
    "population": 38512,
    "district": "Rhein-Sieg-Kreis",
    "coords": {
      "lat": "50.817",
      "lon": "7.033"
    },
    "area": 35.79
  },
  {
    "name": "Würselen",
    "slug": "wuerselen",
    "population": 38496,
    "district": "Aachen",
    "coords": {
      "lat": "50.817",
      "lon": "6.133"
    },
    "area": 34.385
  },
  {
    "name": "Haltern am See",
    "slug": "haltern-am-see",
    "population": 37845,
    "district": "Recklinghausen",
    "coords": {
      "lat": "51.750",
      "lon": "7.183"
    },
    "area": 158.34
  },
  {
    "name": "Greven",
    "slug": "greven",
    "population": 37709,
    "district": "Steinfurt",
    "coords": {
      "lat": "52.09167",
      "lon": "7.60833"
    },
    "area": 140.26
  },
  {
    "name": "Kamp-Lintfort",
    "slug": "kamp-lintfort",
    "population": 37635,
    "district": "Wesel",
    "coords": {
      "lat": "51.50000",
      "lon": "6.53333"
    },
    "area": 63.16
  },
  {
    "name": "Warendorf",
    "slug": "warendorf",
    "population": 37173,
    "district": "Warendorf",
    "coords": {
      "lat": "51.95389",
      "lon": "7.99333"
    },
    "area": 176.75
  },
  {
    "name": "Wesseling",
    "slug": "wesseling",
    "population": 36731,
    "district": "Rhein-Erft-Kreis",
    "coords": {
      "lat": "50.817",
      "lon": "6.967"
    },
    "area": 23.4
  },
  {
    "name": "Beckum",
    "slug": "beckum",
    "population": 36637,
    "district": "Warendorf",
    "coords": {
      "lat": "51.75500",
      "lon": "8.04028"
    },
    "area": 111.46
  },
  {
    "name": "Coesfeld",
    "slug": "coesfeld",
    "population": 36182,
    "district": "Coesfeld",
    "coords": {
      "lat": "51.950",
      "lon": "7.167"
    },
    "area": 141.05
  },
  {
    "name": "Emsdetten",
    "slug": "emsdetten",
    "population": 36068,
    "district": "Steinfurt",
    "coords": {
      "lat": "52.17278",
      "lon": "7.53444"
    },
    "area": 72.06
  },
  {
    "name": "Voerde",
    "slug": "voerde",
    "population": 36047,
    "district": "Wesel",
    "coords": {
      "lat": "51.60000",
      "lon": "6.68333"
    },
    "area": 53.49
  },
  {
    "name": "Porta Westfalica",
    "slug": "porta-westfalica",
    "population": 35734,
    "district": "Minden-Lübbecke",
    "coords": {
      "lat": "52.21667",
      "lon": "8.93333"
    },
    "area": 105
  },
  {
    "name": "Lage",
    "slug": "lage",
    "population": 34885,
    "district": "Lippe",
    "coords": {
      "lat": "51.96667",
      "lon": "8.80000"
    },
    "area": 76.04
  },
  {
    "name": "Datteln",
    "slug": "datteln",
    "population": 34714,
    "district": "Recklinghausen",
    "coords": {
      "lat": "51.65389",
      "lon": "7.34167"
    },
    "area": 66.08
  },
  {
    "name": "Wermelskirchen",
    "slug": "wermelskirchen",
    "population": 34597,
    "district": "Rheinisch-Bergischer Kreis",
    "coords": {
      "lat": "51.150",
      "lon": "7.217"
    },
    "area": 74.66
  },
  {
    "name": "Kempen",
    "slug": "kempen",
    "population": 34537,
    "district": "Viersen",
    "coords": {
      "lat": "51.36583",
      "lon": "6.41944"
    },
    "area": 68.79
  },
  {
    "name": "Goch",
    "slug": "goch",
    "population": 34531,
    "district": "Kleve",
    "coords": {
      "lat": "51.68389",
      "lon": "6.16194"
    },
    "area": 115.38
  },
  {
    "name": "Steinfurt",
    "slug": "steinfurt",
    "population": 34431,
    "district": "Steinfurt",
    "coords": {
      "lat": "52.14750",
      "lon": "7.34417"
    },
    "area": 111.42
  },
  {
    "name": "Hemer",
    "slug": "hemer",
    "population": 33863,
    "district": "Märkischer Kreis",
    "coords": {
      "lat": "51.38333",
      "lon": "7.76667"
    },
    "area": 67.56
  },
  {
    "name": "Geldern",
    "slug": "geldern",
    "population": 33760,
    "district": "Kleve",
    "coords": {
      "lat": "51.51972",
      "lon": "6.33250"
    },
    "area": 96.91
  },
  {
    "name": "Korschenbroich",
    "slug": "korschenbroich",
    "population": 33484,
    "district": "Rhein-Kreis Neuss",
    "coords": {
      "lat": "51.183",
      "lon": "6.517"
    },
    "area": 55.26
  },
  {
    "name": "Jülich",
    "slug": "juelich",
    "population": 32336,
    "district": "Düren",
    "coords": {
      "lat": "50.92222",
      "lon": "6.35833"
    },
    "area": 90.4
  },
  {
    "name": "Delbrück",
    "slug": "delbrueck",
    "population": 32039,
    "district": "Paderborn",
    "coords": {
      "lat": "51.76667",
      "lon": "8.56667"
    },
    "area": 157.26
  },
  {
    "name": "Oer-Erkenschwick",
    "slug": "oer-erkenschwick",
    "population": 31532,
    "district": "Recklinghausen",
    "coords": {
      "lat": "51.64222",
      "lon": "7.25083"
    },
    "area": 38.8
  },
  {
    "name": "Kreuztal",
    "slug": "kreuztal",
    "population": 30965,
    "district": "Siegen-Wittgenstein",
    "coords": {
      "lat": "50.967",
      "lon": "7.967"
    },
    "area": 70.97
  },
  {
    "name": "Rheinberg",
    "slug": "rheinberg",
    "population": 30933,
    "district": "Wesel",
    "coords": {
      "lat": "51.54667",
      "lon": "6.60056"
    },
    "area": 75.15
  },
  {
    "name": "Emmerich",
    "slug": "emmerich",
    "population": 30869,
    "district": "Kleve",
    "coords": {
      "lat": "51.83500",
      "lon": "6.24528"
    },
    "area": 80.11
  },
  {
    "name": "Gevelsberg",
    "slug": "gevelsberg",
    "population": 30733,
    "district": "Ennepe-Ruhr-Kreis",
    "coords": {
      "lat": "51.317",
      "lon": "7.333"
    },
    "area": 26.27
  },
  {
    "name": "Werl",
    "slug": "werl",
    "population": 30702,
    "district": "Soest",
    "coords": {
      "lat": "51.55000",
      "lon": "7.92000"
    },
    "area": 76.24
  },
  {
    "name": "Lohmar",
    "slug": "lohmar",
    "population": 30316,
    "district": "Rhein-Sieg-Kreis",
    "coords": {
      "lat": "50.817",
      "lon": "7.217"
    },
    "area": 65.5
  },
  {
    "name": "Haan",
    "slug": "haan",
    "population": 30263,
    "district": "Mettmann",
    "coords": {
      "lat": "51.167",
      "lon": "7.000"
    },
    "area": 24.22
  },
  {
    "name": "Ennepetal",
    "slug": "ennepetal",
    "population": 30117,
    "district": "Ennepe-Ruhr-Kreis",
    "coords": {
      "lat": "51.283",
      "lon": "7.333"
    },
    "area": 57.42
  },
  {
    "name": "Meschede",
    "slug": "meschede",
    "population": 29696,
    "district": "Hochsauerlandkreis",
    "coords": {
      "lat": "51.350",
      "lon": "8.283"
    },
    "area": 218.5
  },
  {
    "name": "Werne",
    "slug": "werne",
    "population": 29588,
    "district": "Unna",
    "coords": {
      "lat": "51.667",
      "lon": "7.617"
    },
    "area": 76.08
  },
  {
    "name": "Waltrop",
    "slug": "waltrop",
    "population": 29472,
    "district": "Recklinghausen",
    "coords": {
      "lat": "51.617",
      "lon": "7.383"
    },
    "area": 46.98
  },
  {
    "name": "Rietberg",
    "slug": "rietberg",
    "population": 29432,
    "district": "Gütersloh",
    "coords": {
      "lat": "51.800",
      "lon": "8.433"
    },
    "area": 110.37
  },
  {
    "name": "Tönisvorst",
    "slug": "toenisvorst",
    "population": 29249,
    "district": "Viersen",
    "coords": {
      "lat": "51.32083",
      "lon": "6.49306"
    },
    "area": 44.33
  },
  {
    "name": "Oelde",
    "slug": "oelde",
    "population": 29133,
    "district": "Warendorf",
    "coords": {
      "lat": "51.833",
      "lon": "8.150"
    },
    "area": 102.63
  },
  {
    "name": "Rösrath",
    "slug": "roesrath",
    "population": 28759,
    "district": "Rheinisch-Bergischer Kreis",
    "coords": {
      "lat": "50.900",
      "lon": "7.183"
    },
    "area": 38.81
  },
  {
    "name": "Schwelm",
    "slug": "schwelm",
    "population": 28590,
    "district": "Ennepe-Ruhr-Kreis",
    "coords": {
      "lat": "51.267",
      "lon": "7.267"
    },
    "area": 20.5
  },
  {
    "name": "Höxter",
    "slug": "hoexter",
    "population": 28509,
    "district": "Höxter",
    "coords": {
      "lat": "51.767",
      "lon": "9.367"
    },
    "area": 157.89
  },
  {
    "name": "Wegberg",
    "slug": "wegberg",
    "population": 28130,
    "district": "Heinsberg",
    "coords": {
      "lat": "51.14167",
      "lon": "6.27917"
    },
    "area": 84
  },
  {
    "name": "Mechernich",
    "slug": "mechernich",
    "population": 27986,
    "district": "Euskirchen",
    "coords": {
      "lat": "50.600",
      "lon": "6.650"
    },
    "area": 136.3
  },
  {
    "name": "Kevelaer",
    "slug": "kevelaer",
    "population": 27955,
    "district": "Kleve",
    "coords": {
      "lat": "51.58333",
      "lon": "6.25000"
    },
    "area": 100.6
  },
  {
    "name": "Leichlingen",
    "slug": "leichlingen",
    "population": 27885,
    "district": "Rheinisch-Bergischer Kreis",
    "coords": {
      "lat": "51.117",
      "lon": "7.017"
    },
    "area": 37.33
  },
  {
    "name": "Sundern",
    "slug": "sundern",
    "population": 27554,
    "district": "Hochsauerlandkreis",
    "coords": {
      "lat": "51.317",
      "lon": "8.000"
    },
    "area": 192.86
  },
  {
    "name": "Neukirchen-Vluyn",
    "slug": "neukirchen-vluyn",
    "population": 27532,
    "district": "Wesel",
    "coords": {
      "lat": "51.44167",
      "lon": "6.55833"
    },
    "area": 43.48
  },
  {
    "name": "Geilenkirchen",
    "slug": "geilenkirchen",
    "population": 27518,
    "district": "Heinsberg",
    "coords": {
      "lat": "50.96528",
      "lon": "6.11944"
    },
    "area": 83
  },
  {
    "name": "Baesweiler",
    "slug": "baesweiler",
    "population": 27319,
    "district": "Aachen",
    "coords": {
      "lat": "50.900",
      "lon": "6.183"
    },
    "area": 27.82
  },
  {
    "name": "Wetter",
    "slug": "wetter",
    "population": 27269,
    "district": "Ennepe-Ruhr-Kreis",
    "coords": {
      "lat": "51.38806",
      "lon": "7.39500"
    },
    "area": 31.47
  },
  {
    "name": "Overath",
    "slug": "overath",
    "population": 27124,
    "district": "Rheinisch-Bergischer Kreis",
    "coords": {
      "lat": "50.950",
      "lon": "7.300"
    },
    "area": 68.8
  },
  {
    "name": "Hamminkeln",
    "slug": "hamminkeln",
    "population": 26962,
    "district": "Wesel",
    "coords": {
      "lat": "51.73194",
      "lon": "6.59083"
    },
    "area": 164.44
  },
  {
    "name": "Rheinbach",
    "slug": "rheinbach",
    "population": 26949,
    "district": "Rhein-Sieg-Kreis",
    "coords": {
      "lat": "50.633",
      "lon": "6.950"
    },
    "area": 69.74
  },
  {
    "name": "Schloß Holte-Stukenbrock",
    "slug": "schloss-holte-stukenbrock",
    "population": 26943,
    "district": "Gütersloh",
    "coords": {
      "lat": "51.883",
      "lon": "8.617"
    },
    "area": 67.42
  },
  {
    "name": "Heiligenhaus",
    "slug": "heiligenhaus",
    "population": 26301,
    "district": "Mettmann",
    "coords": {
      "lat": "51.31667",
      "lon": "6.96667"
    },
    "area": 27.47
  },
  {
    "name": "Selm",
    "slug": "selm",
    "population": 25802,
    "district": "Unna",
    "coords": {
      "lat": "51.683",
      "lon": "7.483"
    },
    "area": 60.34
  },
  {
    "name": "Bad Honnef",
    "slug": "bad-honnef",
    "population": 25759,
    "district": "Rhein-Sieg-Kreis",
    "coords": {
      "lat": "50.64500",
      "lon": "7.22694"
    },
    "area": 48.3
  },
  {
    "name": "Lübbecke",
    "slug": "luebbecke",
    "population": 25573,
    "district": "Minden-Lübbecke",
    "coords": {
      "lat": "52.30806",
      "lon": "8.62306"
    },
    "area": 65
  },
  {
    "name": "Verl",
    "slug": "verl",
    "population": 25382,
    "district": "Gütersloh",
    "coords": {
      "lat": "51.88306",
      "lon": "8.51667"
    },
    "area": 71.36
  },
  {
    "name": "Harsewinkel",
    "slug": "harsewinkel",
    "population": 25338,
    "district": "Gütersloh",
    "coords": {
      "lat": "51.96667",
      "lon": "8.23306"
    },
    "area": 100.12
  },
  {
    "name": "Brilon",
    "slug": "brilon",
    "population": 25336,
    "district": "Hochsauerlandkreis",
    "coords": {
      "lat": "51.39556",
      "lon": "8.56778"
    },
    "area": 228.95
  },
  {
    "name": "Wiehl",
    "slug": "wiehl",
    "population": 25199,
    "district": "Oberbergischer Kreis",
    "coords": {
      "lat": "50.950",
      "lon": "7.533"
    },
    "area": 53.27
  },
  {
    "name": "Lennestadt",
    "slug": "lennestadt",
    "population": 25140,
    "district": "Olpe",
    "coords": {
      "lat": "51.12361",
      "lon": "8.06806"
    },
    "area": 135.06
  },
  {
    "name": "Petershagen",
    "slug": "petershagen",
    "population": 25045,
    "district": "Minden-Lübbecke",
    "coords": {
      "lat": "52.383",
      "lon": "8.967"
    },
    "area": 212
  },
  {
    "name": "Salzkotten",
    "slug": "salzkotten",
    "population": 25013,
    "district": "Paderborn",
    "coords": {
      "lat": "51.67083",
      "lon": "8.60472"
    },
    "area": 109.4
  },
  {
    "name": "Plettenberg",
    "slug": "plettenberg",
    "population": 24978,
    "district": "Märkischer Kreis",
    "coords": {
      "lat": "51.217",
      "lon": "7.883"
    },
    "area": 96.29
  },
  {
    "name": "Lüdinghausen",
    "slug": "luedinghausen",
    "population": 24810,
    "district": "Coesfeld",
    "coords": {
      "lat": "51.767",
      "lon": "7.433"
    },
    "area": 140.31
  },
  {
    "name": "Schmallenberg",
    "slug": "schmallenberg",
    "population": 24806,
    "district": "Hochsauerlandkreis",
    "coords": {
      "lat": "51.148983",
      "lon": "8.284539"
    },
    "area": 303
  },
  {
    "name": "Meckenheim",
    "slug": "meckenheim",
    "population": 24741,
    "district": "Rhein-Sieg-Kreis",
    "coords": {
      "lat": "50.633",
      "lon": "7.017"
    },
    "area": 34.92
  },
  {
    "name": "Sprockhövel",
    "slug": "sprockhoevel",
    "population": 24702,
    "district": "Ennepe-Ruhr-Kreis",
    "coords": {
      "lat": "51.367",
      "lon": "7.250"
    },
    "area": 47.78
  },
  {
    "name": "Espelkamp",
    "slug": "espelkamp",
    "population": 24676,
    "district": "Minden-Lübbecke",
    "coords": {
      "lat": "52.37722",
      "lon": "8.63278"
    },
    "area": 84.1
  },
  {
    "name": "Olpe",
    "slug": "olpe",
    "population": 24593,
    "district": "Olpe",
    "coords": {
      "lat": "51.017",
      "lon": "7.833"
    },
    "area": 85.6
  },
  {
    "name": "Warstein",
    "slug": "warstein",
    "population": 24520,
    "district": "Soest",
    "coords": {
      "lat": "51.450",
      "lon": "8.350"
    },
    "area": 157.91
  },
  {
    "name": "Attendorn",
    "slug": "attendorn",
    "population": 24330,
    "district": "Olpe",
    "coords": {
      "lat": "51.117",
      "lon": "7.900"
    },
    "area": 97.86
  },
  {
    "name": "Übach-Palenberg",
    "slug": "uebach-palenberg",
    "population": 23906,
    "district": "Heinsberg",
    "coords": {
      "lat": "50.91972",
      "lon": "6.11944"
    },
    "area": 26.11
  },
  {
    "name": "Bedburg",
    "slug": "bedburg",
    "population": 23743,
    "district": "Rhein-Erft-Kreis",
    "coords": {
      "lat": "51.00000",
      "lon": "6.56250"
    },
    "area": 80.21
  },
  {
    "name": "Jüchen",
    "slug": "juechen",
    "population": 23516,
    "district": "Neuss",
    "coords": {
      "lat": "51.10111",
      "lon": "6.50167"
    },
    "area": 71.84
  },
  {
    "name": "Netphen",
    "slug": "netphen",
    "population": 23033,
    "district": "Siegen-Wittgenstein",
    "coords": {
      "lat": "50.91472",
      "lon": "8.10000"
    },
    "area": 137.39
  },
  {
    "name": "Warburg",
    "slug": "warburg",
    "population": 22928,
    "district": "Höxter",
    "coords": {
      "lat": "51.50000",
      "lon": "9.16972"
    },
    "area": 168.71
  },
  {
    "name": "Vreden",
    "slug": "vreden",
    "population": 22676,
    "district": "Borken",
    "coords": {
      "lat": "52.03306",
      "lon": "6.83306"
    },
    "area": 135.53
  },
  {
    "name": "Herdecke",
    "slug": "herdecke",
    "population": 22653,
    "district": "Ennepe-Ruhr-Kreis",
    "coords": {
      "lat": "51.400",
      "lon": "7.433"
    },
    "area": 22.4
  },
  {
    "name": "Lengerich",
    "slug": "lengerich",
    "population": 22511,
    "district": "Steinfurt",
    "coords": {
      "lat": "52.17500",
      "lon": "7.86667"
    },
    "area": 90.71
  },
  {
    "name": "Radevormwald",
    "slug": "radevormwald",
    "population": 21963,
    "district": "Oberbergischer Kreis",
    "coords": {
      "lat": "51.200",
      "lon": "7.350"
    },
    "area": 53.77
  },
  {
    "name": "Elsdorf",
    "slug": "elsdorf",
    "population": 21745,
    "district": "Rhein-Erft-Kreis",
    "coords": {
      "lat": "50.933",
      "lon": "6.567"
    },
    "area": 66
  },
  {
    "name": "Versmold",
    "slug": "versmold",
    "population": 21697,
    "district": "Gütersloh",
    "coords": {
      "lat": "52.04361",
      "lon": "8.15000"
    },
    "area": 84.81
  },
  {
    "name": "Xanten",
    "slug": "xanten",
    "population": 21521,
    "district": "Wesel",
    "coords": {
      "lat": "51.66222",
      "lon": "6.45389"
    },
    "area": 72.39
  },
  {
    "name": "Büren",
    "slug": "bueren",
    "population": 21452,
    "district": "Paderborn",
    "coords": {
      "lat": "51.550",
      "lon": "8.567"
    },
    "area": 170.97
  },
  {
    "name": "Olsberg",
    "slug": "olsberg",
    "population": 21452,
    "district": "Hochsauerlandkreis",
    "coords": {
      "lat": "51.350",
      "lon": "8.483"
    },
    "area": 117.97
  },
  {
    "name": "Halle",
    "slug": "halle",
    "population": 21448,
    "district": "Gütersloh",
    "coords": {
      "lat": "52.067",
      "lon": "8.367"
    },
    "area": 69.21
  },
  {
    "name": "Geseke",
    "slug": "geseke",
    "population": 21422,
    "district": "Soest",
    "coords": {
      "lat": "51.650",
      "lon": "8.517"
    },
    "area": 97.48
  },
  {
    "name": "Rees",
    "slug": "rees",
    "population": 21030,
    "district": "Kleve",
    "coords": {
      "lat": "51.76667",
      "lon": "6.40000"
    },
    "area": 109.66
  },
  {
    "name": "Wülfrath",
    "slug": "wuelfrath",
    "population": 21003,
    "district": "Mettmann",
    "coords": {
      "lat": "51.28333",
      "lon": "7.03333"
    },
    "area": 32.23
  },
  {
    "name": "Wipperfürth",
    "slug": "wipperfuerth",
    "population": 20875,
    "district": "Oberbergischer Kreis",
    "coords": {
      "lat": "51.11667",
      "lon": "7.40000"
    },
    "area": 118.16
  },
  {
    "name": "Fröndenberg",
    "slug": "froendenberg",
    "population": 20566,
    "district": "Unna",
    "coords": {
      "lat": "51.47194",
      "lon": "7.76583"
    },
    "area": 56.21
  },
  {
    "name": "Meinerzhagen",
    "slug": "meinerzhagen",
    "population": 20529,
    "district": "Märkischer Kreis",
    "coords": {
      "lat": "51.117",
      "lon": "7.633"
    },
    "area": 115.18
  },
  {
    "name": "Enger",
    "slug": "enger",
    "population": 20469,
    "district": "Herford",
    "coords": {
      "lat": "52.13333",
      "lon": "8.56667"
    },
    "area": 41.21
  },
  {
    "name": "Zülpich",
    "slug": "zuelpich",
    "population": 20440,
    "district": "Euskirchen",
    "coords": {
      "lat": "50.70000",
      "lon": "6.65000"
    },
    "area": 101
  },
  {
    "name": "Hörstel",
    "slug": "hoerstel",
    "population": 20335,
    "district": "Steinfurt",
    "coords": {
      "lat": "52.29722",
      "lon": "7.58611"
    },
    "area": 107.32
  },
  {
    "name": "Stadtlohn",
    "slug": "stadtlohn",
    "population": 20290,
    "district": "Borken",
    "coords": {
      "lat": "51.99250",
      "lon": "6.91500"
    },
    "area": 79.06
  }
]